City_ID,City,Lat,Lng,Max Temp,Humidity,Cloudiness,Wind Speed,Country,Date
0,butaritari,3.0707,172.7902,27.67,79,21,6.74,KI,1678862000
1,ushuaia,-54.8,-68.3,2.81,75,0,3.6,AR,1678862004
2,kaitangata,-46.2817,169.8464,14.12,83,86,2.85,NZ,1678862120
3,ponta do sol,32.6667,-17.1,16.35,79,75,0.81,PT,1678862025
4,bredasdorp,-34.5322,20.0403,20.91,90,100,8.15,ZA,1678862052
5,christchurch,-43.5333,172.6333,17.73,75,75,8.23,NZ,1678862012
6,harrisonburg,38.4496,-78.8689,-0.47,59,40,5.66,US,1678862162
7,bluff,-46.6,168.3333,12.67,75,32,2.81,NZ,1678862163
8,cherskiy,68.75,161.3,-12.76,92,100,2.96,RU,1678862116
9,muswellbrook,-32.2667,150.9,31.01,26,27,2.66,AU,1678862164
10,tuktoyaktuk,69.4541,-133.0374,-33.96,100,100,2.36,CA,1678861993
11,clyde river,70.4692,-68.5914,-29.87,69,100,1.03,CA,1678862081
12,esmeraldas,-19.7625,-44.3139,20.48,95,100,1.68,BR,1678861988
13,wasilla,61.5814,-149.4394,-8.01,52,20,7.72,US,1678862167
14,zhigansk,66.7697,123.3711,-13.46,92,94,1.36,RU,1678862168
15,buraydah,26.326,43.975,17.25,18,0,5.88,SA,1678861957
16,makakilo city,21.3469,-158.0858,25.18,91,75,4.12,US,1678862169
17,rikitea,-23.1203,-134.9692,26.01,69,0,3.23,PF,1678861988
18,marsh harbour,26.5412,-77.0636,21.39,65,20,7.42,BS,1678862163
19,saskylakh,71.9167,114.0833,-13.99,89,19,4.55,RU,1678862171
20,puerto ayora,-0.7393,-90.3518,24.75,100,29,1.14,EC,1678861788
21,fuzhou,26.0614,119.3061,19.94,31,1,1.71,CN,1678861955
22,aklavik,68.2191,-135.0107,-28.44,93,100,4.18,CA,1678862173
23,port lincoln,-34.7333,135.8667,25.04,40,9,6.48,AU,1678862174
24,torbay,47.6666,-52.7314,-3.01,88,75,5.14,CA,1678861986
25,carnarvon,-24.8667,113.6333,31.03,51,0,8.88,AU,1678862091
26,daphne,30.6035,-87.9036,8.76,62,0,4.12,US,1678862176
27,vaini,-21.2,-175.2,26.09,78,20,3.6,TO,1678862084
28,mar del plata,-38.0023,-57.5575,23.86,97,100,8.94,AR,1678862032
29,saint george,37.1041,-113.5841,12.46,74,100,4.12,US,1678862177
30,mahebourg,-20.4081,57.7,28.16,61,40,7.72,MU,1678862119
31,kupang,-10.1667,123.5833,32.32,74,40,2.06,ID,1678861987
32,yellowknife,62.456,-114.3525,-19.69,65,20,4.63,CA,1678862088
33,mandalgovi,45.7625,106.2708,-3.89,51,100,1.88,MN,1678862180
34,mardin,37.3131,40.7436,11.59,88,100,7.2,TR,1678862180
35,san cristobal,7.7669,-72.225,18.74,66,87,1.19,VE,1678862182
36,bardsir,29.9227,56.5743,13.28,51,24,1.29,IR,1678862183
37,namwala,-15.7504,26.4384,21.25,74,9,2.02,ZM,1678862184
38,bethel,41.3712,-73.414,2.47,80,0,5.14,US,1678862185
39,omsukchan,62.5333,155.8,-10.14,93,57,3.89,RU,1678862185
40,sale,34.0389,-6.8166,10.91,100,40,1.54,MA,1678862186
41,longido,-2.7333,36.6833,23.72,55,100,3.94,TZ,1678862187
42,mataura,-46.1927,168.8643,12.49,83,46,1.31,NZ,1678862057
43,dikson,73.5069,80.5464,-5.23,93,100,15.46,RU,1678862003
44,avarua,-21.2078,-159.775,25.03,83,99,0.51,CK,1678862085
45,muros,42.7762,-9.0603,11.72,94,63,3.3,ES,1678862189
46,nanortalik,60.1432,-45.2371,-5.78,77,93,2.44,GL,1678862190
47,pinsk,52.1229,26.0951,8.15,81,100,2.77,BY,1678862191
48,kamenolomni,47.6685,40.2051,4.15,52,100,7.71,RU,1678862192
49,duayaw nkwanta,7.1724,-2.1028,22.4,92,21,1.53,GH,1678862192
50,atuona,-9.8,-139.0333,27.15,76,93,3.79,PF,1678862017
51,avera,33.194,-82.5271,2.03,60,16,2.31,US,1678862194
52,aitape,-3.1374,142.3475,28.56,70,89,2.29,PG,1678862195
53,noumea,-22.2763,166.4572,29.99,81,100,4.74,NC,1678862196
54,okha,53.5739,142.9478,-2.15,84,100,6.43,RU,1678862196
55,cape town,-33.9258,18.4232,22.73,85,23,5.81,ZA,1678861993
56,barrow,71.2906,-156.7887,-28.99,76,0,3.09,US,1678861977
57,georgiyevka,43.0369,74.7114,13.02,62,0,7.0,KZ,1678862198
58,koslan,63.4564,48.8989,1.38,100,100,4.66,RU,1678862199
59,borogontsy,62.6683,131.1683,-4.25,85,95,3.3,RU,1678862200
60,port elizabeth,-33.918,25.5701,22.83,99,66,2.24,ZA,1678861759
61,maldonado,-34.6667,-54.9167,25.66,92,7,4.55,UY,1678862201
62,san carlos de bariloche,-41.1456,-71.3082,12.86,71,75,10.8,AR,1678862202
63,sola,-13.8833,167.55,29.37,74,20,1.03,VU,1678862202
64,hami,42.8,93.45,13.76,24,98,3.38,CN,1678862203
65,chokurdakh,70.6333,147.9167,-21.61,97,100,1.37,RU,1678862007
66,katherine,-14.4667,132.2667,33.18,43,75,4.63,AU,1678862204
67,nome,64.5011,-165.4064,-15.96,60,0,7.2,US,1678862205
68,fairbanks,64.8378,-147.7164,-17.02,55,75,4.63,US,1678862205
69,sovetskiy,61.3614,63.5842,-2.04,79,72,5.15,RU,1678862206
70,port alfred,-33.5906,26.891,22.32,97,100,2.24,ZA,1678861979
71,serov,59.6033,60.5787,0.5,79,60,4.58,RU,1678862207
72,leningradskiy,69.3833,178.4167,-25.17,84,5,2.14,RU,1678862080
73,port moresby,-9.4431,147.1797,29.68,74,40,5.14,PG,1678862208
74,jerantut,3.936,102.3626,33.28,39,82,0.51,MY,1678862209
75,kloulklubed,7.0419,134.2556,29.28,67,41,1.58,PW,1678862209
76,moose factory,51.2585,-80.6094,-16.01,78,0,2.57,CA,1678862210
77,broome,42.2506,-75.833,-1.83,90,100,8.23,US,1678862111
78,nikolskoye,59.7035,30.7861,4.89,99,100,5.0,RU,1678862041
79,casablanca,33.5928,-7.6192,11.19,81,93,2.06,MA,1678862212
80,salto,-31.3833,-57.9667,25.49,89,93,1.34,UY,1678862212
81,tabou,4.423,-7.3528,25.87,87,100,3.66,CI,1678862213
82,kaliua,-5.0606,31.7936,19.32,92,100,1.01,TZ,1678862213
83,grande-synthe,51.0154,2.2998,2.98,46,19,2.01,FR,1678862214
84,busselton,-33.65,115.3333,25.57,61,0,5.7,AU,1678862023
85,merauke,-8.4667,140.3333,28.23,76,100,2.77,ID,1678861985
86,constitucion,-35.3333,-72.4167,13.71,64,0,1.78,CL,1678862216
87,halifax,44.6453,-63.5724,3.58,96,100,5.14,CA,1678862037
88,hermanus,-34.4187,19.2345,22.11,90,100,7.49,ZA,1678862077
89,bengkulu,-3.8004,102.2655,28.94,67,59,3.41,ID,1678862103
90,albany,42.6001,-73.9662,0.76,85,100,5.36,US,1678861748
91,castro,-24.7911,-50.0119,17.12,99,100,3.05,BR,1678862218
92,hithadhoo,-0.6,73.0833,27.91,78,100,5.14,MV,1678861996
93,cochrane,51.1834,-114.4687,-3.85,62,20,3.09,CA,1678862113
94,hambantota,6.1241,81.1185,31.19,74,75,1.54,LK,1678862220
95,kapaa,22.0752,-159.319,24.18,90,40,7.72,US,1678862028
96,saint-pierre,-21.3393,55.4781,28.84,58,0,9.26,RE,1678862221
97,bathsheba,13.2167,-59.5167,26.34,69,40,7.72,BB,1678862064
98,georgetown,5.4112,100.3354,32.96,55,20,4.12,MY,1678862222
99,piacabucu,-10.4056,-36.4344,24.41,86,69,2.29,BR,1678862223
100,qasigiannguit,68.8193,-51.1922,-8.86,78,100,2.67,GL,1678862224
101,narsaq,60.9167,-46.05,-2.88,70,100,3.26,GL,1678862024
102,hay river,60.8156,-115.7999,-18.01,71,75,3.6,CA,1678861994
103,bambous virieux,-20.3428,57.7575,28.14,61,40,7.72,MU,1678862063
104,ahipara,-35.1667,173.1667,16.72,77,2,2.35,NZ,1678862226
105,salalah,17.0151,54.0924,28.05,57,40,1.54,OM,1678862113
106,puerto del rosario,28.5004,-13.8627,15.86,88,20,3.6,ES,1678862228
107,caravelas,-17.7125,-39.2481,22.97,88,6,1.26,BR,1678862229
108,tabuk,17.4189,121.4443,29.19,55,45,2.05,PH,1678861992
109,cidreira,-30.1811,-50.2056,24.54,88,77,8.53,BR,1678862142
110,vigrestad,58.5667,5.7,1.99,70,26,4.5,NO,1678862231
111,port-cartier,50.0334,-66.8654,-0.88,79,100,6.72,CA,1678862232
112,turayf,31.6725,38.6637,9.14,93,75,8.23,SA,1678862233
113,norman wells,65.282,-126.8329,-23.98,70,75,1.03,CA,1678862067
114,hobart,-42.8794,147.3294,21.92,61,75,3.09,AU,1678861618
115,charagua,-19.8,-63.2167,19.54,97,97,1.35,BO,1678862235
116,arraial do cabo,-22.9661,-42.0278,23.85,86,91,2.32,BR,1678862235
117,punta arenas,-53.15,-70.9167,4.06,70,20,3.6,CL,1678861948
118,codrington,-38.2667,141.9667,19.55,59,93,4.09,AU,1678862095
119,kyshtovka,56.555,76.6271,-1.13,87,100,4.56,RU,1678862237
120,sidvokodvo,-26.6282,31.4202,22.77,88,20,1.54,SZ,1678862238
121,ondjiva,-17.0667,15.7333,22.98,40,92,1.55,AO,1678862239
122,berlevag,70.8578,29.0864,-1.03,69,75,8.23,NO,1678862030
123,leh,34.1667,77.5833,-3.26,52,5,0.97,IN,1678862241
124,ponta delgada,37.7333,-25.6667,15.4,94,40,7.2,PT,1678862241
125,longyearbyen,78.2186,15.6401,-21.09,71,20,6.17,SJ,1678862014
126,hella,67.2,14.4333,-3.92,86,0,3.09,NO,1678862243
127,flin flon,54.7682,-101.865,-11.5,95,100,3.96,CA,1678862243
128,anadyr,64.75,177.4833,-16.72,70,0,5.0,RU,1678862244
129,new norfolk,-42.7826,147.0587,21.72,40,100,1.79,AU,1678862041
130,alyangula,-13.8483,136.4192,29.04,67,100,1.38,AU,1678862246
131,natal,-5.795,-35.2094,25.36,94,40,3.6,BR,1678862246
132,east london,-33.0153,27.9116,25.41,72,99,3.91,ZA,1678861989
133,woodward,36.4337,-99.3904,7.57,69,0,8.23,US,1678862248
134,sisimiut,66.9395,-53.6735,-7.42,88,100,4.87,GL,1678862248
135,menemen,38.6075,27.0694,8.9,79,0,5.66,TR,1678862250
136,olafsvik,64.8945,-23.7142,-5.89,64,100,9.76,IS,1678861980
137,san patricio,28.017,-97.5169,19.92,68,100,4.95,US,1678862251
138,kidodi,-7.6036,37.0044,27.93,66,100,1.37,TZ,1678862252
139,quatre cocos,-20.2078,57.7625,28.06,65,66,7.25,MU,1678862253
140,araouane,18.9048,-3.5265,23.9,12,1,4.89,ML,1678862254
141,fortuna,40.5982,-124.1573,8.14,90,100,0.0,US,1678862255
142,talnakh,69.4865,88.3972,-6.55,86,88,6.46,RU,1678862256
143,sioux lookout,50.1001,-91.917,-1.96,46,100,7.2,CA,1678862256
144,gamboula,4.1178,15.1393,24.52,73,100,1.52,CF,1678862257
145,lodja,-3.4833,23.4333,21.08,95,100,0.55,CD,1678862258
146,emerald,-23.5333,148.1667,33.52,51,41,5.04,AU,1678862259
147,manggar,-2.8833,108.2667,27.93,73,82,2.78,ID,1678862260
148,tiksi,71.6872,128.8694,-19.87,99,44,2.64,RU,1678862060
149,bundaberg,-24.85,152.35,29.56,74,0,1.79,AU,1678862261
150,ojinaga,29.5667,-104.4167,19.12,59,0,6.69,MX,1678862262
151,iqaluit,63.7506,-68.5145,-23.15,84,40,0.0,CA,1678862263
152,vao,-22.6667,167.4833,25.31,87,100,9.74,NC,1678861982
153,khvastovichi,53.4694,35.0941,2.78,84,91,5.69,RU,1678862264
154,plouzane,48.3833,-4.6167,6.03,90,0,2.57,FR,1678862194
155,pauini,-7.7136,-66.9764,21.64,98,100,0.58,BR,1678862265
156,airai,-8.9266,125.4092,20.12,82,77,0.88,TL,1678862266
157,alice springs,-23.7,133.8833,38.75,11,2,2.57,AU,1678862267
158,san quintin,30.4833,-115.95,15.54,81,99,1.99,MX,1678862204
159,mafinga,-7.25,35.0667,19.18,91,100,0.88,TZ,1678862268
160,kahului,20.8947,-156.47,24.06,88,20,5.66,US,1678862114
161,aswan,24.0934,32.907,19.33,32,0,4.62,EG,1678862269
162,fiche,9.8,38.7333,16.37,46,100,1.1,ET,1678862270
163,hilo,19.7297,-155.09,26.82,93,75,2.06,US,1678861946
164,san,13.3034,-4.8956,27.29,11,16,3.88,ML,1678862136
165,beni suef,29.0731,31.0979,15.49,56,0,2.04,EG,1678862271
166,cedar city,37.6775,-113.0619,6.54,70,40,11.83,US,1678862253
167,sao joao da barra,-21.6403,-41.0511,23.24,88,18,1.92,BR,1678862272
168,hasaki,35.7333,140.8333,17.94,56,0,2.94,JP,1678862108
169,kimbe,-5.5502,150.1429,28.4,78,76,1.95,PG,1678862274
170,kodiak,57.79,-152.4072,-4.27,58,20,4.12,US,1678862018
171,wanning,18.8003,110.3967,25.51,60,24,3.8,CN,1678862275
172,sao mateus do sul,-25.8742,-50.3828,16.36,100,100,1.12,BR,1678862275
173,douentza,14.9951,-2.9517,25.79,12,1,1.83,ML,1678862276
174,golden,39.7555,-105.2211,9.45,39,0,3.09,US,1678862277
175,padang,-0.9492,100.3543,31.03,75,100,1.59,ID,1678861956
176,husavik,66.0449,-17.3389,-7.98,68,100,6.01,IS,1678862051
177,lagoa,39.05,-27.9833,13.9,83,0,13.08,PT,1678862058
178,nsanje,-16.92,35.262,20.19,99,100,1.75,MW,1678862279
179,qaanaaq,77.484,-69.3632,-16.15,74,100,0.72,GL,1678862042
180,dingle,10.9995,122.6711,29.34,59,74,5.09,PH,1678862280
181,haines junction,60.7522,-137.5108,-21.03,71,100,0.0,CA,1678862281
182,saint-francois,46.4154,3.9054,-1.31,100,40,0.51,FR,1678862282
183,flinders,-34.5833,150.8552,26.14,68,29,1.48,AU,1678862282
184,ribas do rio pardo,-20.4431,-53.7592,20.79,95,98,1.03,BR,1678862284
185,victoria,22.2855,114.1577,24.03,76,8,3.58,HK,1678862283
186,portland,45.5234,-122.6762,6.97,78,40,0.0,US,1678862183
187,kondinskoye,59.6481,67.41,-2.95,80,6,2.23,RU,1678862285
188,san rafael,-34.6177,-68.3301,23.65,59,0,2.84,AR,1678862286
189,loksa,59.5764,25.7214,1.07,89,100,5.55,EE,1678862289
190,yar-sale,66.8333,70.8333,-5.23,75,100,9.79,RU,1678862291
191,chuy,-33.6971,-53.4616,23.37,91,72,3.38,UY,1678862036
192,kamenka,51.3223,42.7678,4.78,44,100,7.75,RU,1678862292
193,santa maria,-29.6842,-53.8069,21.76,95,95,2.72,BR,1678862293
194,tura,25.5198,90.2201,32.18,26,89,3.44,IN,1678862293
195,kallifitos,41.1667,24.2167,9.39,68,92,1.36,GR,1678862294
196,kidal,18.4411,1.4078,26.0,10,9,3.84,ML,1678862143
197,provideniya,64.3833,-173.3,-21.69,78,0,3.2,RU,1678861991
198,kachiry,53.0675,76.1036,0.66,96,100,5.83,KZ,1678862296
199,mizdah,31.4451,12.9801,14.47,57,0,5.67,LY,1678862297
200,arona,28.0996,-16.681,18.28,61,20,4.63,ES,1678862298
201,chiman,32.5463,73.8138,33.61,13,92,0.71,PK,1678862299
202,xingyi,24.1877,102.817,23.99,22,94,5.72,CN,1678862300
203,nioro,13.35,-15.75,20.86,67,0,2.12,GM,1678862300
204,kajaani,64.2273,27.7285,-3.97,86,75,0.51,FI,1678862302
205,tezu,27.9167,96.1667,32.46,22,82,2.41,IN,1678862112
206,usinsk,65.9939,57.5281,-1.35,95,100,11.15,RU,1678862303
207,jinxiang,27.4327,120.6062,18.52,61,7,2.88,CN,1678862304
208,fort nelson,58.8053,-122.7002,-13.23,85,100,2.57,CA,1678862305
209,bousse,12.6606,-1.8922,25.26,10,0,3.56,BF,1678862305
210,maragogi,-9.0122,-35.2225,25.1,83,100,2.35,BR,1678862061
211,jamestown,42.097,-79.2353,-3.23,93,100,7.2,US,1678861854
212,esperance,-33.8667,121.9,25.29,58,0,6.02,AU,1678862061
213,ribeira grande,38.5167,-28.7,15.22,82,40,11.32,PT,1678861991
214,walvis bay,-22.9575,14.5053,14.49,68,0,4.17,NA,1678862027
215,goshen,41.5823,-85.8344,-3.95,83,0,2.06,US,1678862040
216,kruisfontein,-34.0033,24.7314,21.6,85,84,4.79,ZA,1678861984
217,coahuayana,18.7333,-103.6833,20.87,95,2,1.48,MX,1678862311
218,lebork,54.5392,17.7501,3.6,93,13,5.18,PL,1678862271
219,bayir,37.2687,28.2167,6.29,60,97,1.54,TR,1678862312
220,vila franca do campo,37.7167,-25.4333,15.23,89,100,8.06,PT,1678862079
221,shchors,51.8186,31.945,4.95,79,100,6.82,UA,1678862308
222,cabo san lucas,22.8909,-109.9124,18.61,60,0,4.21,MX,1678862151
223,jinchang,38.4953,102.1739,8.0,35,100,3.6,CN,1678862314
224,thompson,55.7435,-97.8558,-16.91,85,100,6.17,CA,1678861814
225,vigia del fuerte,6.5789,-76.8863,22.62,100,100,0.41,CO,1678862315
226,rio gallegos,-51.6226,-69.2181,1.03,75,0,3.6,AR,1678862027
227,taksimo,56.3444,114.8794,-6.28,62,100,2.13,RU,1678862317
228,auki,-8.7676,160.7034,26.45,85,100,1.62,SB,1678862318
229,trat,12.5,102.5,35.35,36,8,6.86,TH,1678862320
230,sabha,27.0377,14.4283,17.7,25,0,3.41,LY,1678862081
231,morgan city,29.6994,-91.2068,11.0,82,75,2.57,US,1678862321
232,pozo colorado,-23.4923,-58.7972,22.05,98,7,2.01,PY,1678862321
233,bilovice nad svitavou,49.2471,16.6725,4.2,66,0,4.12,CZ,1678862322
234,neuquen,-38.9516,-68.0591,19.94,32,0,1.54,AR,1678862190
235,banda aceh,5.5577,95.3222,29.44,66,99,5.65,ID,1678862323
236,kuryk,43.2,51.65,14.07,52,94,10.77,KZ,1678862324
237,necochea,-38.5473,-58.7368,22.41,89,100,3.9,AR,1678862107
238,bilibino,68.0546,166.4372,-13.85,97,100,0.97,RU,1678861996
239,ust-nera,64.5667,143.2,-8.36,96,99,1.49,RU,1678862325
240,mayo,38.8876,-76.5119,1.73,60,100,10.29,US,1678862326
241,malkangiri,18.35,81.9,38.56,14,7,0.91,IN,1678862326
242,severo-kurilsk,50.6789,156.125,0.28,97,99,4.53,RU,1678862071
243,tasiilaq,65.6145,-37.6368,-12.91,67,100,1.53,GL,1678862012
244,kangaatsiaq,68.3065,-53.4641,-13.21,82,100,4.99,GL,1678862328
245,cuamba,-14.8031,36.5372,20.37,97,100,1.5,MZ,1678862328
246,galiakot,23.5167,74.0,35.93,10,99,3.07,IN,1678862329
247,bonthe,7.5264,-12.505,24.29,92,27,2.16,SL,1678862330
248,yuzhno-kurilsk,44.0306,145.8556,1.11,82,32,1.99,RU,1678862330
249,xuddur,4.1213,43.8894,29.75,48,89,7.06,SO,1678862331
250,antofagasta,-23.65,-70.4,20.6,87,3,0.18,CL,1678862331
251,saldanha,-33.0117,17.9442,19.74,83,1,1.55,ZA,1678862051
252,weatherford,32.7593,-97.7972,11.03,65,17,3.46,US,1678862270
253,jalu,29.0331,21.5482,16.66,38,0,4.85,LY,1678862333
254,changli,39.7042,119.1506,9.3,10,0,6.53,CN,1678862334
255,cimarron hills,38.8586,-104.6989,9.8,33,75,4.12,US,1678862335
256,khatanga,71.9667,102.5,-8.71,93,100,5.02,RU,1678862128
257,kvam,61.6656,9.6898,-10.62,89,10,2.58,NO,1678862336
258,souillac,-20.5167,57.5167,28.21,61,40,7.72,MU,1678862336
259,saint-philippe,-21.3585,55.7679,28.77,71,44,6.05,RE,1678862016
260,road town,18.4167,-64.6167,26.05,76,39,6.09,VG,1678861918
261,sheridan,44.8333,-106.9173,1.84,76,0,2.06,US,1678862338
262,upernavik,72.7868,-56.1549,-18.38,85,100,2.11,GL,1678862339
263,macheng,31.1783,115.0319,24.55,30,0,5.84,CN,1678862339
264,tazovskiy,67.4667,78.7,-7.66,85,91,7.21,RU,1678862340
265,lebyazhye,55.2689,66.4947,-4.26,88,11,5.72,RU,1678862341
266,lebu,-37.6167,-73.65,14.05,85,100,5.05,CL,1678862104
267,curillo,1.0333,-75.9191,21.13,99,100,1.11,CO,1678862342
268,berdigestyakh,62.0989,126.6992,-8.55,90,100,3.19,RU,1678862343
269,marshall,34.3834,-86.3333,1.99,69,0,3.6,US,1678862327
270,harnosand,62.6323,17.9379,-13.99,81,97,3.65,SE,1678862345
271,pirayu,-25.4833,-57.2333,23.96,98,20,2.0,PY,1678862345
272,adrar,20.5022,-10.0711,23.97,13,2,5.44,MR,1678861994
273,yumen,40.2833,97.2,10.23,24,51,3.27,CN,1678862347
274,ilinge,-31.9768,27.0427,22.13,52,6,0.61,ZA,1678862347
275,chapais,49.7834,-74.8492,-11.12,96,61,3.16,CA,1678861969
276,nevesinje,43.2586,18.1133,3.48,95,100,2.49,BA,1678862349
277,swinoujscie,53.9105,14.2471,1.19,93,75,5.14,PL,1678862349
278,guerrero negro,27.9769,-114.0611,15.63,83,100,5.26,MX,1678862078
279,karatuzskoye,53.6072,92.8667,1.32,79,5,1.23,RU,1678862350
280,lasa,46.6166,10.7002,4.27,84,48,3.7,IT,1678862351
281,kenai,60.5544,-151.2583,-6.59,58,100,6.69,US,1678862352
282,severobaykalsk,55.65,109.3167,-9.17,69,23,0.93,RU,1678862353
283,elko,41.0002,-115.5012,4.01,88,100,7.15,US,1678862153
284,freeport,40.6576,-73.5832,2.77,67,20,10.8,US,1678862337
285,vardo,70.3705,31.1107,-2.01,100,100,6.17,NO,1678862355
286,ichinohe,40.2069,141.3017,9.67,55,74,1.65,JP,1678862355
287,la seyne-sur-mer,43.0982,5.8847,10.97,66,100,4.92,FR,1678861920
288,macapa,0.0389,-51.0664,23.99,100,100,2.06,BR,1678862357
289,borgarnes,64.5383,-21.9206,-8.97,72,0,4.72,IS,1678862358
290,yulara,-25.2406,130.9889,38.33,10,5,2.21,AU,1678862359
291,sorland,67.667,12.6934,-0.08,59,54,11.13,NO,1678862098
292,monrovia,6.3005,-10.7969,21.87,84,67,2.72,LR,1678862360
293,panlaitan,12.1191,119.8486,27.14,68,75,2.55,PH,1678862361
294,bhinmal,25.0,72.25,33.36,11,100,1.81,IN,1678862033
295,eskil,38.4017,33.4131,6.52,78,100,2.07,TR,1678862362
296,punuare,14.7333,-85.9667,21.68,96,100,0.4,HN,1678862363
297,lingao,19.9103,109.6859,26.41,60,73,7.21,CN,1678862363
298,olinda,-8.0089,-34.8553,25.85,78,40,2.06,BR,1678862127
299,lorengau,-2.0226,147.2712,27.89,79,100,3.06,PG,1678862365
300,starogard gdanski,53.964,18.5264,2.03,76,100,5.66,PL,1678862366
301,valparaiso,-33.0393,-71.6273,19.44,63,0,1.03,CL,1678861975
302,chiang klang,19.2938,100.8617,36.41,23,38,1.68,TH,1678862367
303,westport,41.1415,-73.3579,2.83,81,0,7.72,US,1678862190
304,chifeng,42.2683,118.9636,1.17,12,5,10.5,CN,1678862369
305,miles city,46.4083,-105.8406,1.54,69,100,4.63,US,1678862369
306,plettenberg bay,-34.0527,23.3716,19.95,91,100,0.91,ZA,1678862370
307,mezen,65.8522,44.24,1.5,100,100,4.97,RU,1678862371
308,daru,-9.0763,143.2092,28.35,76,100,2.19,PG,1678862372
309,ubrique,36.6778,-5.446,11.0,47,0,2.22,ES,1678861829
310,ancud,-41.8697,-73.8203,8.79,88,100,3.56,CL,1678862373
311,beringovskiy,63.05,179.3167,-16.28,85,100,0.81,RU,1678862144
312,pevek,69.7008,170.3133,-22.8,91,11,3.41,RU,1678862072
313,belgrade,44.804,20.4651,8.55,61,0,2.57,RS,1678862217
314,waipawa,-41.4122,175.5153,12.52,86,13,2.2,NZ,1678862375
315,puro,12.4841,123.3827,28.95,67,100,4.2,PH,1678862376
316,zhukovka,53.534,33.728,4.0,87,100,5.74,RU,1678862377
317,arlit,18.7369,7.3853,24.92,13,0,2.51,NE,1678862378
318,kaeo,-35.1,173.7833,19.07,77,2,1.72,NZ,1678862379
319,podosinovets,60.2776,47.0659,1.28,97,100,5.45,RU,1678862379
320,geraldton,-28.7667,114.6,32.23,33,0,7.72,AU,1678861896
321,bargi,22.9833,79.8667,33.72,17,100,2.4,IN,1678862380
322,china,25.7,-99.2333,17.74,93,100,3.52,MX,1678862381
323,kavaratti,10.5669,72.642,27.79,69,3,1.01,IN,1678862382
324,paulista,-7.9408,-34.8731,25.92,83,100,1.97,BR,1678862383
325,suksun,57.1431,57.3949,-0.29,96,100,7.41,RU,1678862383
326,kushmurun,52.4503,64.6311,-4.88,83,19,4.44,KZ,1678862384
327,meppen,52.6906,7.291,0.7,93,40,2.06,DE,1678862385
328,kazan,55.7887,49.1221,2.34,78,100,6.68,RU,1678862385
329,bereda,43.2686,-7.5406,7.3,100,97,0.92,ES,1678862386
330,songkhla,6.8333,100.6667,30.86,48,81,5.73,TH,1678862387
331,pacifica,37.6138,-122.4869,10.23,84,75,6.17,US,1678862220
332,manicore,-5.8092,-61.3003,21.68,99,100,0.88,BR,1678862388
333,prince rupert,54.3161,-130.3201,3.83,93,75,11.32,CA,1678862388
334,soyo,-6.1349,12.3689,27.44,77,81,3.89,AO,1678862389
335,byron bay,-28.65,153.6167,27.62,79,56,4.51,AU,1678862135
336,alpinopolis,-20.8636,-46.3881,17.63,97,100,1.52,BR,1678862390
337,muscat,23.6139,58.5922,27.01,50,5,3.45,OM,1678862368
338,lensk,60.7253,114.9278,-6.61,76,100,4.99,RU,1678862391
339,juxtlahuaca,17.4294,-99.1467,18.63,74,39,1.06,MX,1678862392
340,hofn,64.2539,-15.2082,-8.34,67,1,9.75,IS,1678862393
341,camocim,-2.9022,-40.8411,24.02,88,100,0.88,BR,1678862394
342,navahrudak,53.6,25.8333,4.2,94,100,5.71,BY,1678862394
343,thinadhoo,0.5333,72.9333,27.9,74,38,3.4,MV,1678862021
344,vaasa,63.096,21.6158,-5.95,94,20,3.58,FI,1678862395
345,baijiantan,45.6333,85.1833,10.52,51,6,1.97,CN,1678862396
346,sholokhove,47.6945,34.0312,5.97,72,97,5.43,UA,1678862397
347,zhicheng,30.2956,111.5047,22.91,20,0,7.41,CN,1678862397
348,porto santo,33.072,-16.3415,16.21,72,40,3.09,PT,1678862398
349,srednekolymsk,67.45,153.6833,-10.62,94,100,1.52,RU,1678862399
350,sur,22.5667,59.5289,29.21,42,11,3.67,OM,1678862399
351,puerto escondido,15.85,-97.0667,24.64,74,0,2.14,MX,1678862400
352,shiyan,32.6475,110.7781,18.6,16,99,8.39,CN,1678862401
353,potosi,-19.5836,-65.7531,6.68,83,33,0.76,BO,1678862124
354,darien,41.752,-87.974,-2.87,81,0,2.57,US,1678861930
355,chernyshevskiy,63.0128,112.4714,-10.45,87,50,5.35,RU,1678862403
356,balikpapan,-1.2675,116.8289,29.55,70,20,1.54,ID,1678862404
357,paamiut,61.994,-49.6678,-3.74,93,100,3.0,GL,1678862405
358,klaksvik,62.2266,-6.589,-0.49,60,100,8.34,FO,1678862406
359,barguzin,53.6167,109.6167,-7.15,68,87,2.0,RU,1678862407
360,naruto,34.1833,134.6167,18.99,72,20,9.77,JP,1678862408
361,egvekinot,66.3167,-179.1667,-24.17,81,100,1.56,RU,1678862409
362,ulladulla,-35.35,150.4667,28.2,68,53,0.96,AU,1678862410
363,cayenne,4.9333,-52.3333,25.02,88,100,1.03,GF,1678862411
364,alekseyevsk,57.8406,108.3492,-4.64,73,97,1.01,RU,1678862413
365,kununurra,-15.7667,128.7333,35.99,38,40,5.66,AU,1678862162
366,tadine,-21.55,167.8833,25.59,88,100,8.5,NC,1678862414
367,gilgit,35.9221,74.3087,11.08,42,11,0.37,PK,1678862415
368,salinopolis,-0.6136,-47.3561,23.65,92,100,1.23,BR,1678862416
369,ekhabi,53.5102,142.9671,-2.3,85,100,6.31,RU,1678862417
370,payo,-3.7508,103.6372,31.24,58,83,1.76,ID,1678862417
371,hearst,49.6835,-83.6665,-6.86,96,32,2.26,CA,1678862418
372,livingston,55.9029,-3.5226,-1.4,86,0,2.06,GB,1678862419
373,port hawkesbury,45.6169,-61.3485,0.77,98,100,9.26,CA,1678862139
374,hameenlinna,60.996,24.4643,0.64,88,100,3.16,FI,1678862421
375,grand gaube,-20.0064,57.6608,28.22,69,43,4.47,MU,1678862422
376,kysyl-syr,63.8986,122.7617,-9.59,88,100,2.87,RU,1678862423
377,chimoio,-19.1164,33.4833,21.16,74,9,1.85,MZ,1678862424
378,gidole,5.65,37.3667,17.89,64,84,1.03,ET,1678862425
379,bahir dar,11.5936,37.3908,24.23,22,14,1.77,ET,1678862426
380,houma,29.5958,-90.7195,12.22,84,100,3.6,US,1678861804
381,tall kayf,37.0833,41.0667,15.19,65,84,8.62,TR,1678862427
382,marsa matruh,31.3525,27.2453,14.55,66,7,5.59,EG,1678862428
383,labuhan,-6.8844,112.2051,28.88,68,100,2.97,ID,1678862428
384,udachnyy,66.4167,112.4,-8.64,51,91,6.0,RU,1678862015
385,yeppoon,-23.1333,150.7333,32.88,76,3,4.91,AU,1678862430
386,shakawe,-18.3667,21.85,25.0,48,1,4.33,BW,1678862089
387,excelsior springs,39.3392,-94.2261,5.93,65,0,4.01,US,1678862400
388,brandon,27.9378,-82.2859,15.57,57,0,5.66,US,1678862344
389,juneau,58.3019,-134.4197,-1.55,97,100,2.56,US,1678862433
390,comodoro rivadavia,-45.8667,-67.5,14.92,82,100,1.54,AR,1678862362
391,aldan,58.6031,125.3894,-11.3,90,100,5.46,RU,1678862434
392,isangel,-19.55,169.2667,30.06,74,40,1.54,VU,1678862031
393,rawson,-43.3002,-65.1023,22.19,24,68,3.55,AR,1678862435
394,itarema,-2.9248,-39.9167,24.4,86,100,1.63,BR,1678862436
395,praia da vitoria,38.7333,-27.0667,15.42,88,40,9.92,PT,1678861800
396,khorixas,-20.3667,14.9667,27.52,15,6,3.71,NA,1678862437
397,samfya,-11.3649,29.5565,17.77,96,100,0.63,ZM,1678862438
398,nantucket,41.2835,-70.0995,3.08,89,100,10.8,US,1678862146
399,pangnirtung,66.1451,-65.7125,-20.27,97,100,1.76,CA,1678862439
400,kuusamo,65.9667,29.1833,-5.98,86,40,3.09,FI,1678862440
401,billings,45.7833,-108.5007,2.94,68,75,3.09,US,1678862245
402,saint-louis,16.3333,-15.0,21.8,40,5,3.69,SN,1678862087
403,mackenzie,55.2999,-123.1698,-5.88,79,100,2.06,CA,1678862442
404,jimani,18.4917,-71.8502,22.77,86,18,1.43,DO,1678862442
405,takoradi,4.8845,-1.7554,27.1,83,50,4.0,GH,1678862444
406,hualmay,-11.0964,-77.6139,23.67,85,100,1.12,PE,1678862444
407,tukrah,32.5341,20.5791,15.23,63,0,7.27,LY,1678862445
408,cheney,47.4874,-117.5758,1.77,73,75,2.57,US,1678862445
409,pilani,28.3684,75.6041,33.76,11,100,1.83,IN,1678862446
410,zyryanka,65.75,150.85,-8.56,95,100,2.2,RU,1678862447
411,ialibu,-6.2821,143.9935,15.08,98,100,1.11,PG,1678862447
412,port hardy,50.6996,-127.4199,4.0,100,75,2.06,CA,1678862449
413,nyanza,-2.3519,29.7509,15.88,92,100,0.16,RW,1678862449
414,rawlins,41.7911,-107.2387,3.94,65,0,14.92,US,1678862450
415,imperia,43.9667,7.7833,9.92,31,12,2.75,IT,1678862451
416,ust-ilimsk,58.0006,102.6619,-3.98,69,45,2.62,RU,1678862451
417,santa catalina,9.3337,122.8637,30.99,72,48,1.79,PH,1678862452
418,hvolsvollur,63.7533,-20.2243,-11.21,53,0,4.75,IS,1678862453
419,bijie,27.3125,105.2942,12.36,86,100,2.95,CN,1678862453
420,athni,16.7333,75.0667,32.57,17,100,3.14,IN,1678862346
421,coihaique,-45.5752,-72.0662,6.97,76,20,2.57,CL,1678862067
422,alta floresta,-9.8756,-56.0861,20.92,99,100,0.49,BR,1678862455
423,douglas,41.3,-96.167,4.62,64,0,7.72,US,1678862455
424,kovur,14.4833,79.9833,32.03,46,0,6.45,IN,1678862456
425,te anau,-45.4167,167.7167,14.04,67,56,2.39,NZ,1678862053
426,mushie,-3.0167,16.9,23.8,86,100,0.69,CD,1678862457
427,rosetta,31.4044,30.4164,16.52,58,45,5.75,EG,1678862458
428,ljungby,56.8332,13.9408,0.34,77,11,5.19,SE,1678862459
429,hamilton,39.1834,-84.5333,-2.21,82,0,0.0,US,1678862244
430,kavieng,-2.5744,150.7967,27.7,78,89,3.66,PG,1678862033
431,eydhafushi,5.1033,73.0708,27.32,79,18,4.8,MV,1678862460
432,saint-augustin,51.226,-58.6502,-4.16,90,100,7.01,CA,1678862461
433,clemencia,10.5665,-75.325,26.65,89,100,3.6,CO,1678862462
434,mingguang,32.7802,117.9638,15.58,28,99,9.78,CN,1678862463
435,kazachinskoye,57.6953,93.2761,-0.04,89,100,3.51,RU,1678862464
436,ambon,-3.6954,128.1814,32.08,62,40,3.6,ID,1678862063
437,dukat,62.55,155.55,-9.32,88,78,3.69,RU,1678862465
438,minna,9.6139,6.5569,25.81,12,65,1.2,NG,1678862466
439,sao filipe,14.8961,-24.4956,22.87,71,0,3.67,CV,1678862020
440,grenaa,56.4158,10.8783,0.12,88,8,8.05,DK,1678862467
441,kalabo,-14.97,22.6814,22.92,66,73,2.83,ZM,1678862468
442,ylojarvi,61.5563,23.5961,-1.32,94,75,2.57,FI,1678862469
443,show low,34.2542,-110.0298,8.38,58,40,3.6,US,1678862470
444,santa margherita ligure,44.3346,9.212,12.09,47,1,0.89,IT,1678862471
445,pontianak,-0.0333,109.3333,31.99,59,75,3.6,ID,1678862471
446,jiexiu,37.0244,111.9125,11.25,10,97,1.49,CN,1678862301
447,kitimat,54.0524,-128.6534,1.21,30,67,0.62,CA,1678862231
448,akyab,20.15,92.9,28.54,61,9,4.9,MM,1678862473
449,lata,40.1629,-8.3327,5.04,85,31,1.6,PT,1678862474
450,colomi,-17.35,-65.8667,10.82,94,99,1.34,BO,1678862475
451,sibolga,1.7427,98.7792,28.78,78,41,1.93,ID,1678862476
452,tsybuliv,49.0766,29.8461,4.88,76,83,5.71,UA,1678862477
453,port macquarie,-31.4333,152.9167,24.38,74,2,2.0,AU,1678862478
454,beipiao,41.7919,120.7792,4.58,9,1,8.66,CN,1678862479
455,rio grande,-32.035,-52.0986,24.85,87,98,7.39,BR,1678862387
456,palauig,15.435,119.9045,27.68,69,11,5.16,PH,1678862480
457,chilca,-12.5211,-76.7372,23.56,85,100,0.6,PE,1678862481
458,nyurba,63.2842,118.3319,-7.89,84,100,3.72,RU,1678862482
459,namatanai,-3.6667,152.4333,27.49,79,100,2.36,PG,1678862483
460,gravdal,68.1214,13.5031,-6.06,100,40,0.0,NO,1678862483
461,kurchum,48.5722,83.6542,0.67,73,57,0.71,KZ,1678862482
462,at-bashi,41.1702,75.8106,-0.72,69,100,0.3,KG,1678862485
463,voinesti,47.0667,27.4167,9.09,65,20,6.17,RO,1678862486
464,kupino,54.3663,77.2981,-0.65,86,100,4.61,RU,1678862487
465,yerofey pavlovich,53.9667,121.9667,-7.35,66,100,4.38,RU,1678862488
466,livny,52.4253,37.6069,2.3,75,10,6.22,RU,1678862230
467,bambanglipuro,-7.95,110.2833,29.47,66,76,4.51,ID,1678862489
468,komsomolskiy,40.4272,71.7189,17.4,45,100,3.09,UZ,1678862490
469,jaora,23.6333,75.1333,33.11,11,100,1.98,IN,1678862491
470,poum,-20.2333,164.0167,24.44,91,100,4.85,NC,1678862492
471,montlucon,46.3333,2.6,2.06,96,100,1.23,FR,1678862493
472,redcliffe,-27.2307,153.0973,29.7,47,40,6.69,AU,1678862493
473,svetlaya,46.5389,138.3297,2.2,94,100,6.6,RU,1678862494
474,mrakovo,52.7161,56.6244,-2.85,87,50,2.0,RU,1678862495
475,samarai,-10.6167,150.6667,28.69,75,100,2.06,PG,1678862496
476,kentau,43.5206,68.5094,15.75,32,55,1.81,KZ,1678862496
477,karangasem,-8.45,115.6167,29.24,64,34,2.56,ID,1678862497
478,sampit,-2.5333,112.95,30.2,60,95,2.27,ID,1678862498
479,beira,-19.8436,34.8389,23.82,81,42,3.03,MZ,1678862499
480,lewiston,44.1003,-70.2148,0.58,93,100,9.77,US,1678862487
481,plastun,44.7561,136.2939,2.46,96,100,2.31,RU,1678862500
482,darhan,49.4867,105.9228,-4.23,56,95,2.85,MN,1678862501
483,karratha,-20.7377,116.8463,34.3,44,0,6.78,AU,1678862502
484,conde,-7.2597,-34.9075,24.7,88,20,2.06,BR,1678862502
485,saint anthony,45.0205,-93.218,-0.68,79,0,7.2,US,1678862503
486,puerto cabezas,14.0351,-83.3888,24.89,85,100,2.29,NI,1678862504
487,san alberto,7.7611,-73.3922,22.73,90,8,1.7,CO,1678862504
488,atherton,53.5237,-2.4935,0.79,95,99,1.75,GB,1678862505
489,snezhnogorsk,69.1933,33.2531,-5.12,96,100,1.52,RU,1678862506
490,san jose del guaviare,2.5729,-72.6459,21.81,88,21,0.43,CO,1678862507
491,nhlangano,-27.1167,31.2,21.19,64,0,0.53,SZ,1678862507
492,mangaluru,12.8667,74.8833,33.48,52,20,2.57,IN,1678862508
493,lavrentiya,65.5833,-171.0,-24.13,84,1,3.78,RU,1678862508
494,hovd,48.0056,91.6419,5.74,27,0,2.52,MN,1678862509
495,varberg,57.1056,12.2508,2.81,86,10,9.11,SE,1678862510
496,semey,50.4111,80.2275,6.12,65,0,5.0,KZ,1678862477
497,leoben,47.3461,15.1257,3.78,71,100,2.32,AT,1678862511
498,svetlyy,54.675,20.1347,2.03,84,15,7.53,RU,1678862512
499,morondava,-20.2833,44.2833,23.8,89,100,4.71,MG,1678862512
500,tuatapere,-46.1333,167.6833,13.99,79,75,1.47,NZ,1678862513
501,lichuan,30.3,108.85,18.39,43,12,6.32,CN,1678862514
502,brokopondo,4.75,-55.1667,22.14,92,25,2.59,SR,1678862514
503,amursk,50.2261,136.8994,-2.51,97,100,3.25,RU,1678862236
504,sturgeon bay,44.8342,-87.377,-4.78,68,0,2.06,US,1678862515
505,lianzhou,24.7811,112.3825,28.57,41,98,0.77,CN,1678862516
506,pisco,-13.7,-76.2167,25.03,88,75,2.06,PE,1678862092
507,sumbawanga,-7.9667,31.6167,14.38,99,100,1.1,TZ,1678862517
508,alofi,-19.0595,-169.9187,25.94,94,100,1.54,NU,1678862518
509,el tigre,8.8875,-64.2454,21.37,75,96,5.35,VE,1678862518
510,bukachacha,52.9833,116.9167,-5.09,60,100,4.15,RU,1678862519
511,ornskoldsvik,63.2909,18.7153,-11.47,100,75,2.06,SE,1678862130
512,khani,41.9563,42.9566,11.76,52,99,3.14,GE,1678862520
513,la ronge,55.1001,-105.2842,-14.86,85,75,2.06,CA,1678862520
514,abrau-dyurso,44.69,37.59,7.7,71,98,0.67,RU,1678862521
515,saint-leu,-21.15,55.2833,28.51,87,19,2.64,RE,1678862522
516,luderitz,-26.6481,15.1594,18.83,62,0,3.39,NA,1678862523
517,whitehorse,60.7161,-135.0538,-15.57,68,75,2.57,CA,1678862524
518,lompoc,34.6391,-120.4579,15.08,84,100,5.66,US,1678862526
519,port blair,11.6667,92.75,31.02,62,40,2.06,IN,1678862109
520,teya,60.3778,92.6267,-0.02,89,100,3.87,RU,1678862527
521,ambilobe,-13.2,49.05,29.43,69,67,0.37,MG,1678862528
522,gat,31.61,34.7642,13.55,100,84,6.29,IL,1678862464
523,codajas,-3.8367,-62.0569,22.25,98,100,1.1,BR,1678862529
524,chai badan,15.2,101.1333,36.97,25,95,1.76,TH,1678862530
525,sakakah,29.9697,40.2064,14.76,52,6,5.37,SA,1678862446
526,srivardhan,18.0333,73.0167,30.69,47,99,3.64,IN,1678862532
527,tautira,-17.7333,-149.15,28.18,76,98,5.16,PF,1678862533
528,pacific grove,36.6177,-121.9166,10.06,91,100,5.36,US,1678862431
529,ipixuna,-1.7625,-48.8043,22.45,99,100,1.16,BR,1678862535
530,tsabong,-26.0217,22.401,26.85,34,89,2.49,BW,1678862536
531,juegang,32.3174,121.1855,10.84,80,10,10.0,CN,1678862537
532,deputatskiy,69.3,139.9,-15.65,81,100,0.85,RU,1678862538
533,vestmannaeyjar,63.4427,-20.2734,-4.78,55,27,3.3,IS,1678862539
534,peniche,39.3558,-9.3811,9.6,96,8,3.42,PT,1678862540
535,grindavik,63.8424,-22.4338,-7.74,57,20,9.77,IS,1678862540
536,panjab,34.388,67.0233,4.65,81,99,1.57,AF,1678862541
537,abatskoye,56.2875,70.4555,-2.48,89,100,10.36,RU,1678862542
538,petropavlovsk-kamchatskiy,53.0452,158.6483,-0.67,74,75,3.0,RU,1678862543
539,duluth,46.7833,-92.1066,-2.68,60,100,6.69,US,1678862544
540,shache,38.4167,77.2406,17.9,17,6,2.9,CN,1678862545
541,dabola,10.75,-11.1167,22.48,76,5,1.96,GN,1678862546
542,omboue,-1.5746,9.2618,27.04,84,89,1.67,GA,1678862546
543,paita,-5.0892,-81.1144,25.25,85,100,3.3,PE,1678861981
544,gizo,-8.103,156.8419,28.29,76,94,3.99,SB,1678862548
545,coquimbo,-29.9533,-71.3436,16.85,100,0,0.51,CL,1678862549
546,viransehir,37.2353,39.7631,12.83,93,100,5.74,TR,1678862550
547,kishtwar,33.3167,75.7667,18.82,35,48,1.64,IN,1678862551
548,moulins,46.5,3.3333,2.96,93,99,0.7,FR,1678862552
549,chumikan,54.7183,135.315,-6.68,92,100,6.48,RU,1678862553
550,marathon,44.9,-89.7668,-6.26,71,20,3.09,US,1678862321
551,touros,-5.1989,-35.4608,24.88,85,100,0.38,BR,1678862371
552,mangrol,21.1167,70.1167,30.94,37,100,1.35,IN,1678862555
553,owando,-0.4819,15.8999,25.75,72,99,0.79,CG,1678862556
554,belmonte,-15.8631,-38.8828,24.02,84,98,1.79,BR,1678862045
555,koumac,-20.5667,164.2833,24.34,89,100,1.05,NC,1678862558
556,dasoguz,41.8363,59.9666,10.97,71,0,9.26,TM,1678862559
557,rantauprapat,2.1,99.8333,29.86,67,88,1.33,ID,1678862560
558,dali,25.7,100.1833,22.56,22,36,4.58,CN,1678862560
559,vila velha,-20.3297,-40.2925,23.97,96,100,2.57,BR,1678861867
560,jega,12.2175,4.3792,24.41,11,0,3.3,NG,1678862562
561,vanimo,-2.6741,141.3028,28.03,73,43,2.3,PG,1678862562
562,mahina,-17.5065,-149.489,26.87,89,40,6.17,PF,1678862563
563,santa ines,-3.6667,-45.38,21.64,99,100,1.06,BR,1678862301
564,tutoia,-2.7619,-42.2744,23.71,91,100,2.23,BR,1678862564
565,mayya,61.7333,130.2811,-4.38,84,100,2.91,RU,1678862565
566,tchibanga,-2.85,11.0333,24.86,91,70,0.4,GA,1678862566
567,shingu,33.7333,135.9833,15.87,57,8,2.36,JP,1678862567
568,murud,18.3258,72.965,31.11,46,100,3.7,IN,1678862158
